[
  {
    "name": "Mexico City",
    "lat": 19.4326,
    "lng": -99.1332
  },
  {
    "name": "Amsterdam",
    "lat": 52.3676,
    "lng": 4.9041
  },
  {
    "name": "tuscany",
    "lat": 43.7711,
    "lng": 11.248
  },
  {
    "name": "london",
    "lat": 51.5074,
    "lng": -0.1278
  },
 {
    "name": "Berlin",
    "lat": 52.5200,
    "lng": 13.4050
  }
]
